{"_id":{"$oid":"56e3718da6b3f161fc144c67"},"id":"077","code":"SC","name":"Sussex Court","short_name":"Sussex Court","campus":"UTSG","lat":43.66484,"lng":-79.40089,"address":{"street":"21  Sussex Avenue","city":"Toronto","province":"ON","country":"Canada","postal":"M5S 1J6"}}
{"_id":{"$oid":"56e3718da6b3f161fc144c68"},"id":"200L","code":"PO","name":"Portable 103","short_name":"Portable 103","campus":"UTSC","lat":43.78399,"lng":-79.18871,"address":{"street":"","city":"Scarborough","province":"ON","country":"Canada","postal":""}}
{"_id":{"$oid":"56e3718ea6b3f161fc144c69"},"id":"323Y","code":"XX323Y","name":"MaGrath Valley Res - Block Y (Phase V)","short_name":"MaGrath-Y","campus":"UTM","lat":43.5462,"lng":-79.66178,"address":{"street":"1499 The Collegeway","city":"Mississauga","province":"ON","country":"Canada","postal":"L5L 1J7"}}
{"_id":{"$oid":"56e3718ea6b3f161fc144c6a"},"id":"141","code":"MF","name":"Devonshire Place-100 (Demolished Feb, 2012)","short_name":"Devonshire-100","campus":"UTSG","lat":0,"lng":0,"address":{"street":"100  Devonshire Place","city":"Toronto","province":"ON","country":"Canada","postal":"M5S 2C9"}}
{"_id":{"$oid":"56e3718ea6b3f161fc144c6b"},"id":"041","code":"VP","name":"Varsity Pavilion","short_name":"Vars Pavilion","campus":"UTSG","lat":43.66643,"lng":-79.39643,"address":{"street":"299 Bloor Street West","city":"Toronto","province":"ON","country":"Canada","postal":""}}
{"_id":{"$oid":"56e3718ea6b3f161fc144c6c"},"id":"193","code":"ED","name":"Edward Street-123","short_name":"Edward-123","campus":"UTSG","lat":0,"lng":0,"address":{"street":"123 Edward Street","city":"Toronto","province":"ON","country":"Canada","postal":""}}
{"_id":{"$oid":"56e3718ea6b3f161fc144c6d"},"id":"010A","code":"CH","name":"Convocation Hall","short_name":"Con Hall","campus":"UTSG","lat":43.66077,"lng":-79.39539,"address":{"street":"31  King's College Circle","city":"Toronto","province":"ON","country":"Canada","postal":"M5S 1A1"}}
{"_id":{"$oid":"56e3718ea6b3f161fc144c6e"},"id":"332","code":"RA","name":"Recreation, Athletics \u0026 Wellness Centre","short_name":"RAWC","campus":"UTM","lat":43.5482,"lng":-79.66089,"address":{"street":"1825 Outer Circle","city":"Mississauga","province":"ON","country":"Canada","postal":"L5L 1C6"}}
{"_id":{"$oid":"56e3718ea6b3f161fc144c6f"},"id":"014","code":"FE","name":"Bloor Street West-371","short_name":"Bloor W-371","campus":"UTSG","lat":43.66668,"lng":-79.40223,"address":{"street":"371  Bloor Street West","city":"Toronto","province":"ON","country":"Canada","postal":"M5S 2R7"}}
{"_id":{"$oid":"56e3718ea6b3f161fc144c70"},"id":"068","code":"BN","name":"Clara Benson Building","short_name":"Clara Benson","campus":"UTSG","lat":43.66294,"lng":-79.4002,"address":{"street":"320  Huron Street","city":"Toronto","province":"ON","country":"Canada","postal":"M5S 3J7"}}
{"_id":{"$oid":"56e3718ea6b3f161fc144c71"},"id":"323X","code":"XX323X","name":"MaGrath Valley Res - Block X (Phase V)","short_name":"MaGrath-X","campus":"UTM","lat":43.54588,"lng":-79.66222,"address":{"street":"1499 The Collegeway","city":"Mississauga","province":"ON","country":"Canada","postal":"L5L 1J7"}}
{"_id":{"$oid":"56e3718ea6b3f161fc144c72"},"id":"791","code":"XX791","name":"Charles St. West-35","short_name":"CharlesW-35","campus":"UTSG","lat":43.6681,"lng":-79.38765,"address":{"street":"35  Charles St. West","city":"Toronto","province":"ON","country":"Canada","postal":"M4Y 1R6"}}
{"_id":{"$oid":"56e3718ea6b3f161fc144c73"},"id":"007","code":"MB","name":"Lassonde Mining Building","short_name":"Mining","campus":"UTSG","lat":43.6595,"lng":-79.39339,"address":{"street":"170  College Street","city":"Toronto","province":"ON","country":"Canada","postal":"M5S 3E3"}}
{"_id":{"$oid":"56e3718ea6b3f161fc144c74"},"id":"423","code":"MN","name":"Maritain House","short_name":"Maritain","campus":"UTSG","lat":43.66564,"lng":-79.39002,"address":{"street":"6  Elmsley Place","city":"Toronto","province":"ON","country":"Canada","postal":""}}
{"_id":{"$oid":"56e3718ea6b3f161fc144c75"},"id":"323W","code":"XX323W","name":"MaGrath Valley Res - Block W (Phase V)","short_name":"MaGrath-W","campus":"UTM","lat":43.54574,"lng":-79.66162,"address":{"street":"1499 The Collegeway","city":"Mississauga","province":"ON","country":"Canada","postal":"L5L 1J7"}}
{"_id":{"$oid":"56e3718ea6b3f161fc144c76"},"id":"317","code":"XX317","name":"Paleomagnetism Laboratory","short_name":"Paleomag Lab","campus":"UTM","lat":43.55381,"lng":-79.66586,"address":{"street":"3275 Principal's Road","city":"Mississauga","province":"ON","country":"Canada","postal":"L5L 1C6"}}
{"_id":{"$oid":"56e3718ea6b3f161fc144c77"},"id":"200P","code":"PO","name":"Portable 105","short_name":"Portable 105","campus":"UTSC","lat":43.7842,"lng":-79.18885,"address":{"street":"","city":"Scarborough","province":"ON","country":"Canada","postal":""}}
{"_id":{"$oid":"56e3718ea6b3f161fc144c78"},"id":"600","code":"TC","name":"Trinity College","short_name":"Trinity Coll","campus":"UTSG","lat":43.66514,"lng":-79.39556,"address":{"street":"6  Hoskin Avenue","city":"Toronto","province":"ON","country":"Canada","postal":"M5S 1H8"}}
{"_id":{"$oid":"56e3718ea6b3f161fc144c79"},"id":"089","code":"MK","name":"Munk School of Global Affairs at the Observatory","short_name":"Munk-Observ","campus":"UTSG","lat":43.66747,"lng":-79.39852,"address":{"street":"315  Bloor Street West","city":"Toronto","province":"ON","country":"Canada","postal":"M5S 1A3"}}
{"_id":{"$oid":"56e3718ea6b3f161fc144c7a"},"id":"513","code":"SN","name":"Stephenson House","short_name":"Stephenson","campus":"UTSG","lat":43.66783,"lng":-79.3899,"address":{"street":"63  Charles Street West","city":"Toronto","province":"ON","country":"Canada","postal":"M5S 1K5"}}
{"_id":{"$oid":"56e3718ea6b3f161fc144c7b"},"id":"675","code":"WY","name":"Wycliffe College","short_name":"Wycliffe","campus":"UTSG","lat":43.66453,"lng":-79.39507,"address":{"street":"5  Hoskin Avenue","city":"Toronto","province":"ON","country":"Canada","postal":"M5S 1H7"}}
{"_id":{"$oid":"56e3718ea6b3f161fc144c7c"},"id":"504","code":"BW","name":"Burwash Hall","short_name":"Burwash Hall","campus":"UTSG","lat":43.66744,"lng":-79.39179,"address":{"street":"89  Charles Street West","city":"Toronto","province":"ON","country":"Canada","postal":"M5S 1K6"}}
{"_id":{"$oid":"56e3718ea6b3f161fc144c7d"},"id":"062","code":"ES","name":"Earth Sciences Centre","short_name":"Earth Sci","campus":"UTSG","lat":43.6611,"lng":-79.3993,"address":{"street":"33  Willcocks Street","city":"Toronto","province":"ON","country":"Canada","postal":"M5S 3B3"}}
{"_id":{"$oid":"56e3718ea6b3f161fc144c7e"},"id":"316","code":"DW","name":"Erindale Studio Theatre","short_name":"Erindale Thtr","campus":"UTM","lat":43.54993,"lng":-79.66631,"address":{"street":"1515 Outer Circle","city":"Mississauga","province":"ON","country":"Canada","postal":"L5L 1C6"}}
{"_id":{"$oid":"56e3718ea6b3f161fc144c7f"},"id":"054","code":"SP","name":"Spadina Crescent-1 (Under Renovation)","short_name":"Spadina C-1","campus":"UTSG","lat":43.65946,"lng":-79.40062,"address":{"street":"1  Spadina Crescent","city":"Toronto","province":"ON","country":"Canada","postal":"M5S 2J5"}}
{"_id":{"$oid":"56e3718ea6b3f161fc144c80"},"id":"210F","code":"XX210F","name":"Block F (Student Townhouse Res-Phase II)","short_name":"Block F-Pse II","campus":"UTSC","lat":43.78268,"lng":-79.18452,"address":{"street":"1295 Military Trail","city":"Scarborough","province":"ON","country":"Canada","postal":"M1C 3A8"}}
{"_id":{"$oid":"56e3718ea6b3f161fc144c81"},"id":"314","code":"KN","name":"Kaneff Centre","short_name":"Kaneff","campus":"UTM","lat":43.54848,"lng":-79.66332,"address":{"street":"1833 Inner Circle","city":"Mississauga","province":"ON","country":"Canada","postal":"L5L 1C6"}}
{"_id":{"$oid":"56e3718ea6b3f161fc144c82"},"id":"008","code":"WB","name":"Wallberg Building","short_name":"Wallberg","campus":"UTSG","lat":43.65912,"lng":-79.39519,"address":{"street":"184-200   College Street","city":"Toronto","province":"ON","country":"Canada","postal":"M56 3E5"}}
{"_id":{"$oid":"56e3718ea6b3f161fc144c83"},"id":"012C","code":"MU","name":"Munk School of Global Affairs - Graham Library","short_name":"Munk East","campus":"UTSG","lat":43.66507,"lng":-79.39635,"address":{"street":"5  Devonshire Place","city":"Toronto","province":"ON","country":"Canada","postal":"M5S 3K7"}}
{"_id":{"$oid":"56e3718ea6b3f161fc144c84"},"id":"210A","code":"XX210A","name":"Block A (Student Townhouse Res-Phase I)","short_name":"Block A-Pse I","campus":"UTSC","lat":43.78387,"lng":-79.18378,"address":{"street":"1295 Military Trail","city":"Scarborough","province":"ON","country":"Canada","postal":"M1C 3A8"}}
{"_id":{"$oid":"56e3718ea6b3f161fc144c85"},"id":"323J","code":"XX323J","name":"McLuhan Court Res - Block J (Phase II)","short_name":"McLuhan-J","campus":"UTM","lat":43.54772,"lng":-79.6666,"address":{"street":"3330 Residence Road","city":"Mississauga","province":"ON","country":"Canada","postal":"L5L 1J7"}}
{"_id":{"$oid":"56e3718ea6b3f161fc144c86"},"id":"097A","code":"ML","name":"Queen's Park Crsc. E.-39A","short_name":"Queens Pk39A","campus":"UTSG","lat":43.66431,"lng":-79.38981,"address":{"street":"39A   Queen's Park Crsc. E","city":"Toronto","province":"ON","country":"Canada","postal":"M5S 2C3"}}
{"_id":{"$oid":"56e3718ea6b3f161fc144c87"},"id":"200R","code":"RC","name":"Recreation Wing (R-Wing)","short_name":"R-Wing","campus":"UTSC","lat":43.78476,"lng":-79.18593,"address":{"street":"1265 Military Trail","city":"Scarborough","province":"ON","country":"Canada","postal":"M1C 1A4"}}
{"_id":{"$oid":"56e3718ea6b3f161fc144c88"},"id":"323I","code":"XX323I","name":"McLuhan Court Res - Block I (Phase II)","short_name":"McLuhan-I","campus":"UTM","lat":43.5475,"lng":-79.66595,"address":{"street":"3330 Residence Road","city":"Mississauga","province":"ON","country":"Canada","postal":"L5L 1J7"}}
{"_id":{"$oid":"56e3718ea6b3f161fc144c89"},"id":"018","code":"ST","name":"Central Steam Plant","short_name":"Steam Plant","campus":"UTSG","lat":43.66003,"lng":-79.39774,"address":{"street":"17  Russell Street","city":"Toronto","province":"ON","country":"Canada","postal":"M5S 2S2"}}
{"_id":{"$oid":"56e3718ea6b3f161fc144c8a"},"id":"151","code":"LG","name":"Fasken Martineau Building","short_name":"Martineau","campus":"UTSG","lat":43.66406,"lng":-79.40203,"address":{"street":"655  Spadina Avenue","city":"Toronto","province":"ON","country":"Canada","postal":"M5S 2H9"}}
{"_id":{"$oid":"56e3718ea6b3f161fc144c8b"},"id":"230","code":"VL","name":"Student Residence Centre","short_name":"Stnt Res Ctr","campus":"UTSC","lat":43.78332,"lng":-79.18517,"address":{"street":"1275  Military Trail","city":"Scarborough","province":"ON","country":"Canada","postal":"M1C 1A4"}}
{"_id":{"$oid":"56e3718ea6b3f161fc144c8c"},"id":"201","code":"AC","name":"Academic Resource Centre","short_name":"ARC","campus":"UTSC","lat":43.78418,"lng":-79.18643,"address":{"street":"1265 Military Trail","city":"Scarborough","province":"ON","country":"Canada","postal":"M1C 1A4"}}
{"_id":{"$oid":"56e3718ea6b3f161fc144c8d"},"id":"602","code":"LA","name":"Gerald Larkin Building","short_name":"Larkin Bldg","campus":"UTSG","lat":43.66567,"lng":-79.39691,"address":{"street":"15  Devonshire Place","city":"Toronto","province":"ON","country":"Canada","postal":"M5S 1H8"}}
{"_id":{"$oid":"56e3718ea6b3f161fc144c8e"},"id":"134","code":"RT","name":"Rotman School of Management","short_name":"RotmanSchool","campus":"UTSG","lat":43.66519,"lng":-79.39829,"address":{"street":"105  St. George Street","city":"Toronto","province":"ON","country":"Canada","postal":"M5S 3E6"}}
{"_id":{"$oid":"56e3718ea6b3f161fc144c8f"},"id":"023","code":"UP","name":"University College Union","short_name":"UC Union","campus":"UTSG","lat":43.66338,"lng":-79.39747,"address":{"street":"79  St. George Street","city":"Toronto","province":"ON","country":"Canada","postal":"M5S 2E5"}}
{"_id":{"$oid":"56e3718ea6b3f161fc144c90"},"id":"260","code":"XX260","name":"Harbutt House (Vacant)","short_name":"Harbutt Hse","campus":"UTSC","lat":43.77929,"lng":-79.18113,"address":{"street":"130  Old Kingston Road","city":"Scarborough","province":"ON","country":"Canada","postal":"M1E 3J5"}}
{"_id":{"$oid":"56e3718ea6b3f161fc144c91"},"id":"401","code":"LC","name":"Loretto College","short_name":"Loretto","campus":"UTSG","lat":43.66736,"lng":-79.3901,"address":{"street":"70  St. Mary Street","city":"Toronto","province":"ON","country":"Canada","postal":"M5S 1J3"}}
{"_id":{"$oid":"56e3718ea6b3f161fc144c92"},"id":"302","code":"XX302","name":"Forensic Anthropology Field School","short_name":"Forensic Schl","campus":"UTM","lat":43.55291,"lng":-79.66553,"address":{"street":"3245 Principal's Road","city":"Mississauga","province":"ON","country":"Canada","postal":""}}
{"_id":{"$oid":"56e3718ea6b3f161fc144c93"},"id":"020","code":"RS","name":"Rosebrugh Building","short_name":"Rosebrugh","campus":"UTSG","lat":43.66005,"lng":-79.39323,"address":{"street":"164  College Street","city":"Toronto","province":"ON","country":"Canada","postal":"M5S 3G9"}}
{"_id":{"$oid":"56e3718ea6b3f161fc144c94"},"id":"103","code":"CS","name":"School of Continuing Studies","short_name":"SCS","campus":"UTSG","lat":43.6667,"lng":-79.39992,"address":{"street":"158  St. George Street","city":"Toronto","province":"ON","country":"Canada","postal":"M5S 2V8"}}
{"_id":{"$oid":"56e3718ea6b3f161fc144c95"},"id":"050","code":"FH","name":"Falconer Hall","short_name":"Falconer Hal","campus":"UTSG","lat":43.66669,"lng":-79.39396,"address":{"street":"84  Queen's Park","city":"Toronto","province":"ON","country":"Canada","postal":"M5S 2C5"}}
{"_id":{"$oid":"56e3718ea6b3f161fc144c96"},"id":"056","code":"GU","name":"Graduate Students' Union","short_name":"G.S.U.","campus":"UTSG","lat":43.66083,"lng":-79.40025,"address":{"street":"16  Bancroft Avenue","city":"Toronto","province":"ON","country":"Canada","postal":"M5S 1C1"}}
{"_id":{"$oid":"56e3718ea6b3f161fc144c97"},"id":"008A","code":"PT","name":"D.L. Pratt Building","short_name":"D.L. Pratt","campus":"UTSG","lat":43.65963,"lng":-79.39469,"address":{"street":"6  King's College Road","city":"Toronto","province":"ON","country":"Canada","postal":"M5S 3H5"}}
{"_id":{"$oid":"56e3718ea6b3f161fc144c98"},"id":"104","code":"GE","name":"Max Gluskin House","short_name":"Gluskin House","campus":"UTSG","lat":43.66615,"lng":-79.3997,"address":{"street":"150  St. George Street","city":"Toronto","province":"ON","country":"Canada","postal":"M5S 3G7"}}
{"_id":{"$oid":"56e3718ea6b3f161fc144c99"},"id":"098B","code":"JP","name":"Wellesley Street West -90","short_name":"Wellesley-90","campus":"UTSG","lat":43.66404,"lng":-79.38973,"address":{"street":"90 Wellesley Street West","city":"Toronto","province":"ON","country":"Canada","postal":"M5S 1C5"}}
{"_id":{"$oid":"56e3718ea6b3f161fc144c9a"},"id":"516","code":"LH","name":"Charles Street West-65","short_name":"CharlesStW-65","campus":"UTSG","lat":43.66784,"lng":-79.39,"address":{"street":"65  Charles Street West","city":"Toronto","province":"ON","country":"Canada","postal":"M5S 1K5"}}
{"_id":{"$oid":"56e3718ea6b3f161fc144c9b"},"id":"323P","code":"XX323P","name":"Leacock Lane Res - Block P (Phase IV)","short_name":"Leacock-P","campus":"UTM","lat":43.54627,"lng":-79.66256,"address":{"street":"1900 Outer Circle","city":"Mississauga","province":"ON","country":"Canada","postal":"L5L 1J7"}}
{"_id":{"$oid":"56e3718ea6b3f161fc144c9c"},"id":"009","code":"SF","name":"Sandford Fleming Building","short_name":"Sandford Flm","campus":"UTSG","lat":43.66012,"lng":-79.3951,"address":{"street":"10  King's College Road","city":"Toronto","province":"ON","country":"Canada","postal":"M5S 3G4"}}
{"_id":{"$oid":"56e3718ea6b3f161fc144c9d"},"id":"145","code":"KP","name":"Koffler House","short_name":"Koffler Hse","campus":"UTSG","lat":43.66061,"lng":-79.40059,"address":{"street":"569  Spadina Crescent","city":"Toronto","province":"ON","country":"Canada","postal":"M5S 2J7"}}
{"_id":{"$oid":"56e3718ea6b3f161fc144c9e"},"id":"042","code":"GO","name":"Goldring Centre for High Performance Sport","short_name":"GC High Perf","campus":"UTSG","lat":43.66723,"lng":-79.3984,"address":{"street":"100 Devonshire Place","city":"Toronto","province":"ON","country":"Canada","postal":""}}
{"_id":{"$oid":"56e3718ea6b3f161fc144c9f"},"id":"120","code":"SO","name":"Louis B. Stewart Observatory (UTSU)","short_name":"Stewart Obsv","campus":"UTSG","lat":43.66315,"lng":-79.39468,"address":{"street":"12  Hart House Circle","city":"Toronto","province":"ON","country":"Canada","postal":"M5S 3J9"}}
{"_id":{"$oid":"56e3718ea6b3f161fc144ca0"},"id":"509","code":"BT","name":"Isabel Bader Theatre","short_name":"BaderTheatre","campus":"UTSG","lat":43.66723,"lng":-79.39245,"address":{"street":"93  Charles St. West","city":"Toronto","province":"ON","country":"Canada","postal":"M5S 1K9"}}
{"_id":{"$oid":"56e3718ea6b3f161fc144ca1"},"id":"142","code":"SA","name":"Spadina Ave-713","short_name":"Spadina-713","campus":"UTSG","lat":43.66601,"lng":-79.40284,"address":{"street":"713  Spadina Avenue","city":"Toronto","province":"ON","country":"Canada","postal":"M5S 2J4"}}
{"_id":{"$oid":"56e3718ea6b3f161fc144ca2"},"id":"324D","code":"XX324D","name":"Roy Ivor Hall Res - House D (Phase VI)","short_name":"","campus":"UTM","lat":43.54882,"lng":-79.66698,"address":{"street":"3370 Residence Road","city":"Mississauga","province":"ON","country":"Canada","postal":"L5L 1C6"}}
{"_id":{"$oid":"56e3718ea6b3f161fc144ca3"},"id":"200B","code":"BV","name":"Bladen Wing (B-Wing)","short_name":"B-Wing","campus":"UTSC","lat":43.78432,"lng":-79.18685,"address":{"street":"1265 Military Trail","city":"Scarborough","province":"ON","country":"Canada","postal":"M1C 1A4"}}
{"_id":{"$oid":"56e3718ea6b3f161fc144ca4"},"id":"200S","code":"SW","name":"Science Wing (S-Wing)","short_name":"S-Wing","campus":"UTSC","lat":43.78358,"lng":-79.18781,"address":{"street":"1265 Military Trail","city":"Scarborough","province":"ON","country":"Canada","postal":"M1C 1A4"}}
{"_id":{"$oid":"56e3718ea6b3f161fc144ca5"},"id":"323F","code":"XX323F","name":"Schreiberwood Res - Block F (Phase I)","short_name":"Schreiberwood-F","campus":"UTM","lat":43.54943,"lng":-79.66744,"address":{"street":"3401 Residence Road","city":"Mississauga","province":"ON","country":"Canada","postal":"L5L 1J7"}}
{"_id":{"$oid":"56e3718ea6b3f161fc144ca6"},"id":"039","code":"SG","name":"St. George Street-49","short_name":"St.George-49","campus":"UTSG","lat":43.66066,"lng":-79.3966,"address":{"street":"49  St. George Street","city":"Toronto","province":"ON","country":"Canada","postal":"M5S 2E5"}}
{"_id":{"$oid":"56e3718ea6b3f161fc144ca7"},"id":"006","code":"RL","name":"John P. Robarts Library Building","short_name":"Robarts","campus":"UTSG","lat":43.66445,"lng":-79.39945,"address":{"street":"130  St. George Street","city":"Toronto","province":"ON","country":"Canada","postal":"M5S 1A5"}}
{"_id":{"$oid":"56e3718ea6b3f161fc144ca8"},"id":"210D","code":"XX210D","name":"Block D (Student Townhouse Res-Phase I)","short_name":"Block D-Pse I","campus":"UTSC","lat":43.78306,"lng":-79.18421,"address":{"street":"1295 Military Trail","city":"Scarborough","province":"ON","country":"Canada","postal":"M1C 3A8"}}
{"_id":{"$oid":"56e3718ea6b3f161fc144ca9"},"id":"210M","code":"XX210M","name":"Block M(Student Townhouse Res-Phase III)","short_name":"Block M-Pse III","campus":"UTSC","lat":43.78471,"lng":-79.18897,"address":{"street":"1235 Military Trail","city":"Scarborough","province":"ON","country":"Canada","postal":"M1C 1A3"}}
{"_id":{"$oid":"56e3718ea6b3f161fc144caa"},"id":"340","code":"DH","name":"Deerfield Hall","short_name":"","campus":"UTM","lat":43.5505,"lng":-79.66639,"address":{"street":"1535 Outer Circle","city":"Mississauga","province":"ON","country":"Canada","postal":""}}
{"_id":{"$oid":"56e3718ea6b3f161fc144cab"},"id":"192","code":"EP","name":"Stewart Building","short_name":"StewartBldg","campus":"UTSG","lat":43.65923,"lng":-79.39207,"address":{"street":"149 College Street","city":"Toronto","province":"ON","country":"Canada","postal":"M5T 1P5"}}
{"_id":{"$oid":"56e3718ea6b3f161fc144cac"},"id":"331","code":"HM","name":"Hazel McCallion Academic Learning Centre","short_name":"McCallion ALC","campus":"UTM","lat":43.55095,"lng":-79.66282,"address":{"street":"1675 Outer Circle","city":"Mississauga","province":"ON","country":"Canada","postal":"L5L 1C6"}}
{"_id":{"$oid":"56e3718ea6b3f161fc144cad"},"id":"010","code":"SI","name":"Simcoe Hall","short_name":"Simcoe Hall","campus":"UTSG","lat":43.66076,"lng":-79.39594,"address":{"street":"27  King's College Circle","city":"Toronto","province":"ON","country":"Canada","postal":"M5S 1A1"}}
{"_id":{"$oid":"56e3718ea6b3f161fc144cae"},"id":"068A","code":"WS","name":"Warren Stevens Building","short_name":"Warren Stevn","campus":"UTSG","lat":43.66279,"lng":-79.40102,"address":{"street":"55  Harbord Street","city":"Toronto","province":"ON","country":"Canada","postal":"M5S 2W6"}}
{"_id":{"$oid":"56e3718ea6b3f161fc144caf"},"id":"575A","code":"VI","name":"Nona Macdonald Visitors Centre","short_name":"Visitors Ctr","campus":"UTSG","lat":43.66119,"lng":-79.39627,"address":{"street":"25 King's College Circle","city":"Toronto","province":"ON","country":"Canada","postal":"M5S 1A1"}}
{"_id":{"$oid":"56e3718ea6b3f161fc144cb0"},"id":"503","code":"BC","name":"Birge-Carnegie Library","short_name":"Birge-Carneg","campus":"UTSG","lat":43.66711,"lng":-79.39296,"address":{"street":"75a   Queen's Park","city":"Toronto","province":"ON","country":"Canada","postal":"M5S 1K7"}}
{"_id":{"$oid":"56e3718ea6b3f161fc144cb1"},"id":"078","code":"MP","name":"McLennan Physical Laboratories","short_name":"McLennan Lab","campus":"UTSG","lat":43.66071,"lng":-79.39827,"address":{"street":"255  Huron Street","city":"Toronto","province":"ON","country":"Canada","postal":"M5S 1A7"}}
{"_id":{"$oid":"56e3718ea6b3f161fc144cb2"},"id":"418","code":"PI","name":"Pontifical Institute of Mediaeval Studies","short_name":"P.I.M.S.","campus":"UTSG","lat":43.66569,"lng":-79.39104,"address":{"street":"59  Queen's Park Crescent East","city":"Toronto","province":"ON","country":"Canada","postal":"M5S 2C4"}}
{"_id":{"$oid":"56e3718ea6b3f161fc144cb3"},"id":"001","code":"UC","name":"University College","short_name":"UC","campus":"UTSG","lat":43.6632,"lng":-79.39582,"address":{"street":"15  King's College Circle","city":"Toronto","province":"ON","country":"Canada","postal":"M5S 3H7"}}
{"_id":{"$oid":"56e3718ea6b3f161fc144cb4"},"id":"325","code":"XX325","name":"Erindale Hall Residence (Phase VII)","short_name":"Erindale Hall","campus":"UTM","lat":43.54959,"lng":-79.66564,"address":{"street":"1525 Outer Circle","city":"Mississauga","province":"ON","country":"Canada","postal":"L5L 6A2"}}
{"_id":{"$oid":"56e3718ea6b3f161fc144cb5"},"id":"083","code":"RM","name":"McCaul Street-254/256","short_name":"McCaul-254/6","campus":"UTSG","lat":43.65857,"lng":-79.3936,"address":{"street":"254-256   McCaul Street","city":"Toronto","province":"ON","country":"Canada","postal":"M5T 1W5"}}
{"_id":{"$oid":"56e3718ea6b3f161fc144cb6"},"id":"323E","code":"XX323E","name":"Schreiberwood Res - Block E (Phase I)","short_name":"Schreiberwood-E","campus":"UTM","lat":43.54972,"lng":-79.66779,"address":{"street":"3401 Residence  Road","city":"Mississauga","province":"ON","country":"Canada","postal":"L5L 1J7"}}
{"_id":{"$oid":"56e3718ea6b3f161fc144cb7"},"id":"105","code":"FI","name":"Fields Inst for Research in Math Science","short_name":"Fields Inst","campus":"UTSG","lat":43.65879,"lng":-79.39745,"address":{"street":"222  College Street","city":"Toronto","province":"ON","country":"Canada","postal":"M5T 3J1"}}
{"_id":{"$oid":"56e3718ea6b3f161fc144cb8"},"id":"323K","code":"XX323K","name":"McLuhan Court Res - Block K (Phase II)","short_name":"McLuhan-K","campus":"UTM","lat":43.54806,"lng":-79.66628,"address":{"street":"3330 Residence Road","city":"Mississauga","province":"ON","country":"Canada","postal":"L5L 1J7"}}
{"_id":{"$oid":"56e3718ea6b3f161fc144cb9"},"id":"323U","code":"XX323U","name":"MaGrath Valley Res - Block U (Phase V)","short_name":"MaGrath-U","campus":"UTM","lat":43.54555,"lng":-79.66106,"address":{"street":"1499 The Collegeway","city":"Mississauga","province":"ON","country":"Canada","postal":"L5L 1J7"}}
{"_id":{"$oid":"56e3718ea6b3f161fc144cba"},"id":"335","code":"AX","name":"Academic Annex","short_name":"Acad Annex","campus":"UTM","lat":43.54816,"lng":-79.66452,"address":{"street":"1795 Inner Circle","city":"Mississauga","province":"ON","country":"Canada","postal":"L5L 1C6"}}
{"_id":{"$oid":"56e3718ea6b3f161fc144cbb"},"id":"324B","code":"XX324B","name":"Roy Ivor Hall Res - House B (Phase VI)","short_name":"Ivor Hall-B","campus":"UTM","lat":43.5484,"lng":-79.66744,"address":{"street":"3370 Residence Road","city":"Mississauga","province":"ON","country":"Canada","postal":"L5L 1C6"}}
{"_id":{"$oid":"56e3718ea6b3f161fc144cbc"},"id":"478","code":"RG","name":"Regis College","short_name":"Regis","campus":"UTSG","lat":43.66396,"lng":-79.39028,"address":{"street":"100 Wellesley Street West","city":"Toronto","province":"ON","country":"Canada","postal":"M5S 1C5"}}
{"_id":{"$oid":"56e3718ea6b3f161fc144cbd"},"id":"019","code":"DR","name":"J. Robert S. Prichard Alumni House","short_name":"Prichard Hse","campus":"UTSG","lat":43.66209,"lng":-79.39666,"address":{"street":"21  King's College Circle","city":"Toronto","province":"ON","country":"Canada","postal":"M5S 3J3"}}
{"_id":{"$oid":"56e3718ea6b3f161fc144cbe"},"id":"080","code":"BA","name":"Bahen Centre for Information Technology","short_name":"Bahen Centre","campus":"UTSG","lat":43.65967,"lng":-79.39737,"address":{"street":"40  St. George Street","city":"Toronto","province":"ON","country":"Canada","postal":"M5S 2E4"}}
{"_id":{"$oid":"56e3718ea6b3f161fc144cbf"},"id":"515","code":"NF","name":"Northrop Frye Hall","short_name":"Northrop","campus":"UTSG","lat":43.66641,"lng":-79.39218,"address":{"street":"73  Queen's Park Crescent East","city":"Toronto","province":"ON","country":"Canada","postal":"M5S 1K7"}}
{"_id":{"$oid":"56e3718ea6b3f161fc144cc0"},"id":"146","code":"SU","name":"Sussex Avenue-40","short_name":"Sussex-40","campus":"UTSG","lat":43.66501,"lng":-79.40181,"address":{"street":"40  Sussex Avenue","city":"Toronto","province":"ON","country":"Canada","postal":"M5S 1J7"}}
{"_id":{"$oid":"56e3718ea6b3f161fc144cc1"},"id":"033","code":"SS","name":"Sidney Smith Hall","short_name":"Sidney Smith","campus":"UTSG","lat":43.66238,"lng":-79.39866,"address":{"street":"100  St. George Street","city":"Toronto","province":"ON","country":"Canada","postal":"M5S 3G3"}}
{"_id":{"$oid":"56e3718ea6b3f161fc144cc2"},"id":"172","code":"MM","name":"Macdonald-Mowat House","short_name":"Mowat House","campus":"UTSG","lat":43.66177,"lng":-79.39705,"address":{"street":"63  St. George Street","city":"Toronto","province":"ON","country":"Canada","postal":"M5S 2Z9"}}
{"_id":{"$oid":"56e3718ea6b3f161fc144cc3"},"id":"206","code":"IC","name":"Instructional Centre (UTSC)","short_name":"Instr Ctr","campus":"UTSC","lat":43.7868,"lng":-79.18964,"address":{"street":"1095 Military Trail","city":"Scarborough","province":"ON","country":"Canada","postal":""}}
{"_id":{"$oid":"56e3718ea6b3f161fc144cc4"},"id":"011","code":"TZ","name":"C. David Naylor Building (Formerly Tanz Building)","short_name":"Naylor","campus":"UTSG","lat":43.66043,"lng":-79.39176,"address":{"street":"6  Queen's Park Crescent West","city":"Toronto","province":"ON","country":"Canada","postal":"M5S 3H2"}}
{"_id":{"$oid":"56e3718ea6b3f161fc144cc5"},"id":"333","code":"HB","name":"Terrence Donnelly Health Sciences Complex","short_name":"HealthSci (UTM)","campus":"UTM","lat":43.54964,"lng":-79.66194,"address":{"street":"1777 Outer Circle","city":"Mississauga","province":"ON","country":"Canada","postal":"L5L 1C6"}}
{"_id":{"$oid":"56e3718ea6b3f161fc144cc6"},"id":"323S","code":"XX323S","name":"Leacock Lane Res - Block S (Phase IV)","short_name":"Leacock-S","campus":"UTM","lat":43.54616,"lng":-79.66311,"address":{"street":"1900 Outer Circle","city":"Mississauga","province":"ON","country":"Canada","postal":"L5L 1J7"}}
{"_id":{"$oid":"56e3718ea6b3f161fc144cc7"},"id":"210K","code":"XX210K","name":"Block K(Student Townhouse Res-Phase III)","short_name":"Block K-Pse III","campus":"UTSC","lat":43.7851,"lng":-79.18949,"address":{"street":"1235 Military Trail","city":"Scarborough","province":"ON","country":"Canada","postal":"M1C 1A3"}}
{"_id":{"$oid":"56e3718ea6b3f161fc144cc8"},"id":"210C","code":"XX210C","name":"Block C (Student Townhouse Res-Phase I)","short_name":"Block C-Pse I","campus":"UTSC","lat":43.78331,"lng":-79.18363,"address":{"street":"1295 Military Trail","city":"Scarborough","province":"ON","country":"Canada","postal":"M1C 3A8"}}
{"_id":{"$oid":"56e3718ea6b3f161fc144cc9"},"id":"514","code":"PR","name":"E.J. Pratt Library","short_name":"Pratt Lib","campus":"UTSG","lat":43.66634,"lng":-79.39135,"address":{"street":"71  Queen's Park Crescent East","city":"Toronto","province":"ON","country":"Canada","postal":"M5S 1K7"}}
{"_id":{"$oid":"56e3718ea6b3f161fc144cca"},"id":"608","code":"HI","name":"St. Hilda's College","short_name":"St. Hilda's","campus":"UTSG","lat":43.66573,"lng":-79.39782,"address":{"street":"44  Devonshire Place","city":"Toronto","province":"ON","country":"Canada","postal":"M5S 2E2"}}
{"_id":{"$oid":"56e3718ea6b3f161fc144ccb"},"id":"125","code":"IA","name":"Spadina Avenue-703","short_name":"Spadina-703","campus":"UTSG","lat":43.66572,"lng":-79.40265,"address":{"street":"703  Spadina Avenue","city":"Toronto","province":"ON","country":"Canada","postal":"M5S 2J4"}}
{"_id":{"$oid":"56e3718ea6b3f161fc144ccc"},"id":"156","code":"OA","name":"Old Admin Bldg (Board of Ed)","short_name":"Old Admin","campus":"UTSG","lat":43.65881,"lng":-79.3925,"address":{"street":"263  McCaul Street","city":"Toronto","province":"ON","country":"Canada","postal":"M5T 1W7"}}
{"_id":{"$oid":"56e3718ea6b3f161fc144ccd"},"id":"411","code":"BR","name":"Brennan Hall","short_name":"Brennan Hall","campus":"UTSG","lat":43.66636,"lng":-79.38986,"address":{"street":"81  St. Mary Street","city":"Toronto","province":"ON","country":"Canada","postal":"M5S 1J4"}}
{"_id":{"$oid":"56e3718ea6b3f161fc144cce"},"id":"323T","code":"XX323T","name":"MaGrath Valley Res - Block T (Phase V)","short_name":"MaGrath-T","campus":"UTM","lat":43.54605,"lng":-79.66121,"address":{"street":"1499 The Collegeway","city":"Mississauga","province":"ON","country":"Canada","postal":"L5L 1J7"}}
{"_id":{"$oid":"56e3718ea6b3f161fc144ccf"},"id":"210I","code":"XX210I","name":"Block I (Student Townhouse Res-Phase II)","short_name":"Block I-Pse II","campus":"UTSC","lat":43.78248,"lng":-79.18366,"address":{"street":"1295 Military Trail","city":"Scarborough","province":"ON","country":"Canada","postal":"M1C 3A8"}}
{"_id":{"$oid":"56e3718ea6b3f161fc144cd0"},"id":"066","code":"XG","name":"Spadina Avenue-665","short_name":"Spadina-665","campus":"UTSG","lat":43.66446,"lng":-79.40223,"address":{"street":"665 Spadina Avenue","city":"","province":"ON","country":"Canada","postal":""}}
{"_id":{"$oid":"56e3718ea6b3f161fc144cd1"},"id":"040","code":"LW","name":"Faculty of Law","short_name":"Law","campus":"UTSG","lat":43.66603,"lng":-79.39404,"address":{"street":"78  Queen's Park","city":"Toronto","province":"ON","country":"Canada","postal":"M5S 2C5"}}
{"_id":{"$oid":"56e3718ea6b3f161fc144cd2"},"id":"155","code":"EX","name":"Exam Centre","short_name":"Exam Centre","campus":"UTSG","lat":43.65848,"lng":-79.39286,"address":{"street":"255  McCaul Street","city":"Toronto","province":"ON","country":"Canada","postal":"M5T 1W7"}}
{"_id":{"$oid":"56e3718ea6b3f161fc144cd3"},"id":"415","code":"OH","name":"Odette (Louis) Hall","short_name":"Odette Hall","campus":"UTSG","lat":43.66635,"lng":-79.38891,"address":{"street":"50  St. Joseph Street","city":"Toronto","province":"ON","country":"Canada","postal":"M5S 1J4"}}
{"_id":{"$oid":"56e3718ea6b3f161fc144cd4"},"id":"416","code":"WN","name":"Windle House","short_name":"Windle House","campus":"UTSG","lat":43.66601,"lng":-79.38949,"address":{"street":"5  Elmsley Place","city":"Toronto","province":"ON","country":"Canada","postal":""}}
{"_id":{"$oid":"56e3718ea6b3f161fc144cd5"},"id":"323B","code":"XX323B","name":"Schreiberwood Res - Block B (Phase I)","short_name":"Schreiberwood-B","campus":"UTM","lat":43.54913,"lng":-79.66788,"address":{"street":"3400 Residence Road","city":"Mississauga","province":"ON","country":"Canada","postal":"L5L 1J7"}}
{"_id":{"$oid":"56e3718ea6b3f161fc144cd6"},"id":"128","code":"JH","name":"Jackman Humanities Building","short_name":"Jackman","campus":"UTSG","lat":43.66766,"lng":-79.40032,"address":{"street":"170  St. George Street","city":"Toronto","province":"ON","country":"Canada","postal":"M5R 2M8"}}
{"_id":{"$oid":"56e3718ea6b3f161fc144cd7"},"id":"094","code":"BK","name":"Back Campus Fields","short_name":"Back Campus","campus":"UTSG","lat":0,"lng":0,"address":{"street":"20 Tower Road","city":"Toronto","province":"ON","country":"Canada","postal":""}}
{"_id":{"$oid":"56e3718ea6b3f161fc144cd8"},"id":"111","code":"SK","name":"Factor-Inwentash Faculty of Social Work","short_name":"Social Work","campus":"UTSG","lat":43.66829,"lng":-79.39773,"address":{"street":"246  Bloor Street West","city":"Toronto","province":"ON","country":"Canada","postal":"M5S 1V4"}}
{"_id":{"$oid":"56e3718ea6b3f161fc144cd9"},"id":"029","code":"SD","name":"Sir Daniel Wilson Residence","short_name":"Sir Daniel","campus":"UTSG","lat":43.66264,"lng":-79.39753,"address":{"street":"73  St. George Street","city":"Toronto","province":"ON","country":"Canada","postal":"M5S 2E5"}}
{"_id":{"$oid":"56e3718ea6b3f161fc144cda"},"id":"051","code":"EJ","name":"Edward Johnson Building","short_name":"Edward Johns","campus":"UTSG","lat":43.66655,"lng":-79.39458,"address":{"street":"80  Queen's Park","city":"Toronto","province":"ON","country":"Canada","postal":"M5S 2C5"}}
{"_id":{"$oid":"56e3718ea6b3f161fc144cdb"},"id":"024","code":"HA","name":"Haultain Building","short_name":"Haultain","campus":"UTSG","lat":43.65994,"lng":-79.39364,"address":{"street":"170  College Street (rear of)","city":"Toronto","province":"ON","country":"Canada","postal":"M5S 3E3"}}
{"_id":{"$oid":"56e3718ea6b3f161fc144cdc"},"id":"003","code":"SM","name":"Gerstein Science Information Centre in the Sigmund Samuel Library Bldg","short_name":"Sig Samuel","campus":"UTSG","lat":43.6622,"lng":-79.39385,"address":{"street":"7 and 9 King's College Circle","city":"Toronto","province":"ON","country":"Canada","postal":"M5S 3K1"}}
{"_id":{"$oid":"56e3718ea6b3f161fc144cdd"},"id":"324A","code":"XX324A","name":"Roy Ivor Hall Res - House A (Phase VI)","short_name":"Ivor Hall-A","campus":"UTM","lat":43.54807,"lng":-79.66701,"address":{"street":"3370 Residence Road","city":"Mississauga","province":"ON","country":"Canada","postal":"L5L 1C6"}}
{"_id":{"$oid":"56e3718ea6b3f161fc144cde"},"id":"313","code":"DV","name":"William G. Davis Building","short_name":"Davis Bldg","campus":"UTM","lat":43.54858,"lng":-79.66148,"address":{"street":"1867 Inner Circle","city":"Mississauga","province":"ON","country":"Canada","postal":"L5L 1C6"}}
{"_id":{"$oid":"56e3718ea6b3f161fc144cdf"},"id":"130","code":"WO","name":"Woodsworth College Residence","short_name":"WoodswrthRez","campus":"UTSG","lat":43.66733,"lng":-79.39933,"address":{"street":"321  Bloor St. West","city":"Toronto","province":"ON","country":"Canada","postal":"M5S 1S5"}}
{"_id":{"$oid":"56e3718ea6b3f161fc144ce0"},"id":"200K","code":"PO","name":"Portable 102","short_name":"Portable 102","campus":"UTSC","lat":43.7839,"lng":-79.18856,"address":{"street":"","city":"Scarborough","province":"ON","country":"Canada","postal":""}}
{"_id":{"$oid":"56e3718ea6b3f161fc144ce1"},"id":"323D","code":"XX323D","name":"Schreiberwood Res - Block D (Phase I)","short_name":"Schreiberwood-D","campus":"UTM","lat":43.54907,"lng":-79.66738,"address":{"street":"3400 Residence Road","city":"Mississauga","province":"ON","country":"Canada","postal":"L5L 1J7"}}
{"_id":{"$oid":"56e3718ea6b3f161fc144ce2"},"id":"323L","code":"XX323L","name":"Putnam Place Res - Block L  (Phase III)","short_name":"Putnam-L","campus":"UTM","lat":43.54647,"lng":-79.66459,"address":{"street":"1930 Outer Circle","city":"Mississauga","province":"ON","country":"Canada","postal":"L5L 1J7"}}
{"_id":{"$oid":"56e3718ea6b3f161fc144ce3"},"id":"323Q","code":"XX323Q","name":"Leacock Lane Res - Block Q (Phase IV)","short_name":"Leacock-Q","campus":"UTM","lat":43.54591,"lng":-79.66286,"address":{"street":"1900 Outer Circle","city":"Mississauga","province":"ON","country":"Canada","postal":"L5L 1J7"}}
{"_id":{"$oid":"56e3718ea6b3f161fc144ce4"},"id":"603","code":"GI","name":"George Ignatieff Theatre","short_name":"G Ignatieff","campus":"UTSG","lat":43.66582,"lng":-79.3971,"address":{"street":"15  Devonshire Place","city":"Toronto","province":"ON","country":"Canada","postal":"M5S 1H8"}}
{"_id":{"$oid":"56e3718ea6b3f161fc144ce5"},"id":"231","code":"XX231","name":"N'sheemaehn Child Care Centre","short_name":"UTSC Childcare","campus":"UTSC","lat":43.78569,"lng":-79.1881,"address":{"street":"1255 Military Trail","city":"Scarborough","province":"ON","country":"Canada","postal":"M1C 1A3"}}
{"_id":{"$oid":"56e3718ea6b3f161fc144ce6"},"id":"203","code":"SL","name":"UTSC Student Centre","short_name":"Student Ctr","campus":"UTSC","lat":43.78501,"lng":-79.18695,"address":{"street":"1265 Military Trail","city":"Scarborough","province":"ON","country":"Canada","postal":"M1C 1A4"}}
{"_id":{"$oid":"56e3718ea6b3f161fc144ce7"},"id":"505A","code":"UB","name":"Burwash Residence (Upper Houses)","short_name":"BurwashUpper","campus":"UTSG","lat":43.66692,"lng":-79.39106,"address":{"street":"89  Charles Street West","city":"Toronto","province":"ON","country":"Canada","postal":"M5S 1K6"}}
{"_id":{"$oid":"56e3718ea6b3f161fc144ce8"},"id":"430","code":"CF","name":"Cardinal Flahiff Building","short_name":"Card Flahiff","campus":"UTSG","lat":43.6652,"lng":-79.38869,"address":{"street":"95  St. Joseph Street","city":"Toronto","province":"ON","country":"Canada","postal":"M5S 2R9"}}
{"_id":{"$oid":"56e3718ea6b3f161fc144ce9"},"id":"506","code":"AN","name":"Annesley Hall","short_name":"Annesley","campus":"UTSG","lat":43.66777,"lng":-79.39296,"address":{"street":"95  Queen's Park","city":"Toronto","province":"ON","country":"Canada","postal":"M5S 2C7"}}
{"_id":{"$oid":"56e3718ea6b3f161fc144cea"},"id":"210G","code":"XX210G","name":"Block G (Student Townhouse Res-Phase II)","short_name":"Block G-Pse II","campus":"UTSC","lat":43.78255,"lng":-79.18425,"address":{"street":"1295 Military Trail","city":"Scarborough","province":"ON","country":"Canada","postal":"M1C 3A8"}}
{"_id":{"$oid":"56e3718ea6b3f161fc144ceb"},"id":"314A","code":"KN","name":"Innovation Complex","short_name":"","campus":"UTM","lat":0,"lng":0,"address":{"street":"1833 Inner Circle","city":"Mississauga","province":"ON","country":"Canada","postal":""}}
{"_id":{"$oid":"56e3718ea6b3f161fc144cec"},"id":"179","code":"CZ","name":"College Street-229","short_name":"College-229","campus":"UTSG","lat":43.65816,"lng":-79.39745,"address":{"street":"229  College Street","city":"Toronto","province":"ON","country":"Canada","postal":"M5T 1R4"}}
{"_id":{"$oid":"56e3718ea6b3f161fc144ced"},"id":"016","code":"BI","name":"Banting Institute","short_name":"Banting Inst","campus":"UTSG","lat":43.66049,"lng":-79.38859,"address":{"street":"100  College Street","city":"Toronto","province":"ON","country":"Canada","postal":"M5G 1L5"}}
{"_id":{"$oid":"56e3718ea6b3f161fc144cee"},"id":"161","code":"PB","name":"Leslie L. Dan Pharmacy Building","short_name":"Dan Pharmacy","campus":"UTSG","lat":43.65996,"lng":-79.3917,"address":{"street":"144  College Street","city":"Toronto","province":"ON","country":"Canada","postal":"M5S 3M2"}}
{"_id":{"$oid":"56e3718ea6b3f161fc144cef"},"id":"047","code":"CG","name":"Canadiana Gallery","short_name":"Canadiana","campus":"UTSG","lat":43.66192,"lng":-79.39292,"address":{"street":"14  Queen's Park Crescent West","city":"Toronto","province":"ON","country":"Canada","postal":"M5S 3K9"}}
{"_id":{"$oid":"56e3718ea6b3f161fc144cf0"},"id":"405","code":"EH","name":"Elmsley Hall","short_name":"Elmsley","campus":"UTSG","lat":43.66689,"lng":-79.39027,"address":{"street":"81  St. Mary Street","city":"Toronto","province":"ON","country":"Canada","postal":"M5S 1J4"}}
{"_id":{"$oid":"56e3718ea6b3f161fc144cf1"},"id":"323H","code":"XX323H","name":"McLuhan Court Res - Block H (Phase II)","short_name":"McLuhan - H","campus":"UTM","lat":43.54789,"lng":-79.66572,"address":{"street":"3330 Residence Road","city":"Mississauga","province":"ON","country":"Canada","postal":"L5L 1J7"}}
{"_id":{"$oid":"56e3718ea6b3f161fc144cf2"},"id":"323O","code":"XX323O","name":"Putnam Place Res - Block O (Phase III)","short_name":"Putnam-O","campus":"UTM","lat":43.54688,"lng":-79.66449,"address":{"street":"1930 Outer Circle","city":"Mississauga","province":"ON","country":"Canada","postal":"L5L 1J7"}}
{"_id":{"$oid":"56e3718ea6b3f161fc144cf3"},"id":"070","code":"GB","name":"Galbraith Building","short_name":"Galbraith","campus":"UTSG","lat":43.65988,"lng":-79.39619,"address":{"street":"35  St. George Street","city":"Toronto","province":"ON","country":"Canada","postal":"M5S 1A4"}}
{"_id":{"$oid":"56e3718ea6b3f161fc144cf4"},"id":"110","code":"IR","name":"St. George Street-121","short_name":"StGeorge-121","campus":"UTSG","lat":43.66669,"lng":-79.3991,"address":{"street":"121  St. George Street","city":"Toronto","province":"ON","country":"Canada","postal":"M5S 2E8"}}
{"_id":{"$oid":"56e3718ea6b3f161fc144cf5"},"id":"093","code":"EL","name":"Electrometallurgy Lab","short_name":"Electrometal","campus":"UTSG","lat":43.65947,"lng":-79.3953,"address":{"street":"11  King's College Road (rear)","city":"Toronto","province":"ON","country":"Canada","postal":"M5S 3J2"}}
{"_id":{"$oid":"56e3718ea6b3f161fc144cf6"},"id":"417","code":"PH","name":"Phelan House","short_name":"Phelan","campus":"UTSG","lat":43.6658,"lng":-79.38944,"address":{"street":"3  Elmsley Place","city":"Toronto","province":"ON","country":"Canada","postal":""}}
{"_id":{"$oid":"56e3718ea6b3f161fc144cf7"},"id":"138","code":"CA","name":"Huron Street-370","short_name":"Huron St-370","campus":"UTSG","lat":43.66457,"lng":-79.40069,"address":{"street":"370  Huron Street","city":"Toronto","province":"ON","country":"Canada","postal":"M5S 2G4"}}
{"_id":{"$oid":"56e3718ea6b3f161fc144cf8"},"id":"101","code":"MO","name":"Morrison Hall","short_name":"MorrisonHall","campus":"UTSG","lat":43.6631,"lng":-79.39761,"address":{"street":"75  St. George Street","city":"Toronto","province":"ON","country":"Canada","postal":"M5S 2E5"}}
{"_id":{"$oid":"56e3718ea6b3f161fc144cf9"},"id":"311","code":"NE","name":"North Building","short_name":"North Bldg","campus":"UTM","lat":43.55103,"lng":-79.66593,"address":{"street":"3359  Mississauga Road","city":"Mississauga","province":"ON","country":"Canada","postal":"L5L 1C6"}}
{"_id":{"$oid":"56e3718ea6b3f161fc144cfa"},"id":"061","code":"SB","name":"Borden Building South","short_name":"Borden South","campus":"UTSG","lat":43.66007,"lng":-79.39967,"address":{"street":"487  Spadina Crescent","city":"Toronto","province":"ON","country":"Canada","postal":"M5S 2T4"}}
{"_id":{"$oid":"56e3718ea6b3f161fc144cfb"},"id":"323V","code":"XX323V","name":"MaGrath Valley Res - Block V (Phase V)","short_name":"MaGrath-V","campus":"UTM","lat":43.54548,"lng":-79.66187,"address":{"street":"1499 The Collegeway","city":"Mississauga","province":"ON","country":"Canada","postal":"L5L 1J7"}}
{"_id":{"$oid":"56e3718ea6b3f161fc144cfc"},"id":"505","code":"LB","name":"Burwash Residence (Lower Houses)","short_name":"BurwashLower","campus":"UTSG","lat":43.66638,"lng":-79.39085,"address":{"street":"89  Charles Street West","city":"Toronto","province":"ON","country":"Canada","postal":"M5S 1K6"}}
{"_id":{"$oid":"56e3718ea6b3f161fc144cfd"},"id":"323C","code":"XX323C","name":"Schreiberwood Res - Block C (Phase I)","short_name":"Schreiberwood-C","campus":"UTM","lat":43.54872,"lng":-79.6677,"address":{"street":"3400 Residence Road","city":"Mississauga","province":"ON","country":"Canada","postal":"L5L 1J7"}}
{"_id":{"$oid":"56e3718ea6b3f161fc144cfe"},"id":"210J","code":"XX210J","name":"Block J(Student Townhouse Res-Phase III)","short_name":"Block J-Pse III","campus":"UTSC","lat":43.78565,"lng":-79.18971,"address":{"street":"1235 Military Trail","city":"Scarborough","province":"ON","country":"Canada","postal":"M1C 1A3"}}
{"_id":{"$oid":"56e3718ea6b3f161fc144cff"},"id":"210B","code":"XX210B","name":"Block B (Student Townhouse Res-Phase I)","short_name":"Block B-Pse I","campus":"UTSC","lat":43.7835,"lng":-79.18406,"address":{"street":"1295 Military Trail","city":"Scarborough","province":"ON","country":"Canada","postal":"M1C 3A8"}}
{"_id":{"$oid":"56e3718ea6b3f161fc144d00"},"id":"330","code":"WC","name":"UTM Alumni House","short_name":"UTM Alumni","campus":"UTM","lat":43.54474,"lng":-79.66035,"address":{"street":"1550 The Collegeway","city":"Mississauga","province":"ON","country":"Canada","postal":""}}
{"_id":{"$oid":"56e3718ea6b3f161fc144d01"},"id":"053","code":"WR","name":"Leighton Goldie McCarthy House (Child Study)","short_name":"McCarthy","campus":"UTSG","lat":43.66967,"lng":-79.40607,"address":{"street":"45  Walmer Road","city":"Toronto","province":"ON","country":"Canada","postal":"M5R 2X2"}}
{"_id":{"$oid":"56e3718ea6b3f161fc144d02"},"id":"194","code":"KT","name":"TWH-Krembil Discovery Tower","short_name":"TWH-Krembil","campus":"UTSG","lat":0,"lng":0,"address":{"street":"399 Bathurst Street","city":"Toronto","province":"ON","country":"Canada","postal":""}}
{"_id":{"$oid":"56e3718ea6b3f161fc144d03"},"id":"013","code":"WT","name":"Whitney Hall","short_name":"Whitney Hall","campus":"UTSG","lat":43.66376,"lng":-79.39794,"address":{"street":"85  St. George Street","city":"Toronto","province":"ON","country":"Canada","postal":"M5S 2E5"}}
{"_id":{"$oid":"56e3718ea6b3f161fc144d04"},"id":"025","code":"FG","name":"FitzGerald Building","short_name":"FitzGerald","campus":"UTSG","lat":43.66006,"lng":-79.39245,"address":{"street":"150  College Street","city":"Toronto","province":"ON","country":"Canada","postal":"M5S 1A8"}}
{"_id":{"$oid":"56e3718ea6b3f161fc144d05"},"id":"052","code":"CB","name":"Best Institute","short_name":"Best Inst.","campus":"UTSG","lat":43.66037,"lng":-79.38929,"address":{"street":"112  College St","city":"Toronto","province":"ON","country":"Canada","postal":"M5G 1L6"}}
{"_id":{"$oid":"56e3718ea6b3f161fc144d06"},"id":"071","code":"OG","name":"College Street-92","short_name":"College-92","campus":"UTSG","lat":43.66061,"lng":-79.38811,"address":{"street":"92  College Street","city":"Toronto","province":"ON","country":"Canada","postal":"M5S 1L5"}}
{"_id":{"$oid":"56e3718ea6b3f161fc144d07"},"id":"075","code":"FC","name":"Faculty Club","short_name":"Faculty Club","campus":"UTSG","lat":43.66115,"lng":-79.40049,"address":{"street":"41  Willcocks Street","city":"Toronto","province":"ON","country":"Canada","postal":"M5S 1C7"}}
{"_id":{"$oid":"56e3718ea6b3f161fc144d08"},"id":"323G","code":"XX323G","name":"Schreiberwood Res - Block G (Phase I)","short_name":"Schreiberwood-G","campus":"UTM","lat":43.54962,"lng":-79.6671,"address":{"street":"3401 Residence  Road","city":"Mississauga","province":"ON","country":"Canada","postal":"L5L 1J7"}}
{"_id":{"$oid":"56e3718ea6b3f161fc144d09"},"id":"200J","code":"PO","name":"Portable 101","short_name":"Portable 101","campus":"UTSC","lat":43.78379,"lng":-79.18842,"address":{"street":"","city":"Scarborough","province":"ON","country":"Canada","postal":""}}
{"_id":{"$oid":"56e3718ea6b3f161fc144d0a"},"id":"028","code":"AR","name":"Architecture Building","short_name":"Architecture","campus":"UTSG","lat":43.65868,"lng":-79.39791,"address":{"street":"230  College Street","city":"Toronto","province":"ON","country":"Canada","postal":"M5T 1R2"}}
{"_id":{"$oid":"56e3718ea6b3f161fc144d0b"},"id":"334","code":"IB","name":"Instructional Centre (UTM)","short_name":"Instr Ctr","campus":"UTM","lat":43.55154,"lng":-79.66382,"address":{"street":"1599 Outer Circle","city":"Mississauga","province":"ON","country":"Canada","postal":"L5L 1C6"}}
{"_id":{"$oid":"56e3718ea6b3f161fc144d0c"},"id":"027","code":"PG","name":"Physical Geography Building","short_name":"Geography","campus":"UTSG","lat":43.66036,"lng":-79.39655,"address":{"street":"45  St. George Street","city":"Toronto","province":"ON","country":"Canada","postal":"M5S 2E5"}}
{"_id":{"$oid":"56e3718ea6b3f161fc144d0d"},"id":"072","code":"RW","name":"Ramsay Wright Laboratories","short_name":"RamsayWright","campus":"UTSG","lat":43.66312,"lng":-79.39898,"address":{"street":"25  Harbord Street","city":"Toronto","province":"ON","country":"Canada","postal":"M5S 3G5"}}
{"_id":{"$oid":"56e3718ea6b3f161fc144d0e"},"id":"061A","code":"NB","name":"Borden Building North","short_name":"Borden North","campus":"UTSG","lat":43.66041,"lng":-79.4,"address":{"street":"563  Spadina Crescent","city":"Toronto","province":"ON","country":"Canada","postal":"M5S 2J7"}}
{"_id":{"$oid":"56e3718ea6b3f161fc144d0f"},"id":"012A","code":"MU","name":"Munk School of Global Affairs at Trinity","short_name":"Munk-Trinity","campus":"UTSG","lat":43.6653,"lng":-79.39679,"address":{"street":"1  Devonshire Place","city":"Toronto","province":"ON","country":"Canada","postal":"M5S 3K7"}}
{"_id":{"$oid":"56e3718ea6b3f161fc144d10"},"id":"133","code":"IS","name":"Innis College Student Residence","short_name":"Innis Resid","campus":"UTSG","lat":43.66592,"lng":-79.39877,"address":{"street":"111  St. George Street","city":"Toronto","province":"ON","country":"Canada","postal":"M5S 2E8"}}
{"_id":{"$oid":"56e3718ea6b3f161fc144d11"},"id":"323A","code":"XX323A","name":"Schreiberwood Res - Block A (Phase I)","short_name":"Schreiberwood-A","campus":"UTM","lat":43.54922,"lng":-79.6683,"address":{"street":"3400 Residence Road","city":"Mississuaga","province":"ON","country":"Canada","postal":"L5L 1J7"}}
{"_id":{"$oid":"56e3718ea6b3f161fc144d12"},"id":"004","code":"MR","name":"McMurrich Building","short_name":"McMurrich","campus":"UTSG","lat":43.66111,"lng":-79.39287,"address":{"street":"12  Queen's Park Crescent W","city":"Toronto","province":"ON","country":"Canada","postal":"M5S 1S8"}}
{"_id":{"$oid":"56e3718ea6b3f161fc144d13"},"id":"421","code":"TF","name":"Teefy Hall","short_name":"Teefy Hall","campus":"UTSG","lat":43.66532,"lng":-79.39087,"address":{"street":"57  Queen's Park Crescent East","city":"Toronto","province":"ON","country":"Canada","postal":"M5S 2C4"}}
{"_id":{"$oid":"56e3718ea6b3f161fc144d14"},"id":"131","code":"NR","name":"New College III","short_name":"New Coll III","campus":"UTSG","lat":43.66101,"lng":-79.40078,"address":{"street":"45  Willcocks Street","city":"Toronto","province":"ON","country":"Canada","postal":"M5S 1C7"}}
{"_id":{"$oid":"56e3718ea6b3f161fc144d15"},"id":"324C","code":"XX324C","name":"Roy Ivor Hall Res - House C (Phase VI)","short_name":"Ivor Hall-C","campus":"UTM","lat":43.54846,"lng":-79.66699,"address":{"street":"3370 Residence Road","city":"Mississauga","province":"ON","country":"Canada","postal":"L5L 1C6"}}
{"_id":{"$oid":"56e3718ea6b3f161fc144d16"},"id":"434","code":"TH","name":"Toronto School of Theology","short_name":"T.S.T.","campus":"UTSG","lat":43.66476,"lng":-79.39065,"address":{"street":"47  Queen's Park Crescent East","city":"Toronto","province":"ON","country":"Canada","postal":"M5S 2C3"}}
{"_id":{"$oid":"56e3718ea6b3f161fc144d17"},"id":"143","code":"KS","name":"Koffler Student Services Centre","short_name":"Koffler Cent","campus":"UTSG","lat":43.65917,"lng":-79.39689,"address":{"street":"214  College Street","city":"Toronto","province":"ON","country":"Canada","postal":"M5T 2Z9"}}
{"_id":{"$oid":"56e3718ea6b3f161fc144d18"},"id":"528","code":"LI","name":"Lillian Massey Building","short_name":"L Massey","campus":"UTSG","lat":43.66835,"lng":-79.39367,"address":{"street":"125 Queen's Park","city":"Toronto","province":"ON","country":"Canada","postal":"M5S 2C7"}}
{"_id":{"$oid":"56e3718ea6b3f161fc144d19"},"id":"422","code":"GH","name":"Gilson House","short_name":"Gilson House","campus":"UTSG","lat":43.66574,"lng":-79.39004,"address":{"street":"8  Elmsley Place","city":"Toronto","province":"ON","country":"Canada","postal":""}}
{"_id":{"$oid":"56e3718ea6b3f161fc144d1a"},"id":"152","code":"RU","name":"Rehabilitation Sciences Building","short_name":"Rehab Sci","campus":"UTSG","lat":43.65546,"lng":-79.38917,"address":{"street":"500  University Avenue","city":"Toronto","province":"ON","country":"Canada","postal":"M5G 1V7"}}
{"_id":{"$oid":"56e3718ea6b3f161fc144d1b"},"id":"433","code":"XQ","name":"Queen's Park Crescent East-43","short_name":"Queen's E-43","campus":"UTSG","lat":43.66455,"lng":-79.39059,"address":{"street":"43  Queen's Park Crescent East","city":"Toronto","province":"ON","country":"Canada","postal":"M5S 2C3"}}
{"_id":{"$oid":"56e3718ea6b3f161fc144d1c"},"id":"328","code":"XR","name":"UTM Student Centre","short_name":"UTM-Stdt Ctr","campus":"UTM","lat":43.54895,"lng":-79.66394,"address":{"street":"1815 Inner Circle","city":"Mississauga","province":"ON","country":"Canada","postal":"L5L 1C6"}}
{"_id":{"$oid":"56e3718ea6b3f161fc144d1d"},"id":"091","code":"GM","name":"Luella Massey Studio Theatre","short_name":"Studio Thtre","campus":"UTSG","lat":43.66435,"lng":-79.40107,"address":{"street":"4  Glen Morris Street","city":"Toronto","province":"ON","country":"Canada","postal":"M5S 1J1"}}
{"_id":{"$oid":"56e3718ea6b3f161fc144d1e"},"id":"204","code":"AA","name":"Arts \u0026 Admin Building","short_name":"Arts \u0026 Admin","campus":"UTSC","lat":43.78458,"lng":-79.18735,"address":{"street":"1265 Military Trail","city":"Scarborough","province":"ON","country":"Canada","postal":"M1C 1A4"}}
{"_id":{"$oid":"56e3718ea6b3f161fc144d1f"},"id":"205","code":"SY","name":"Science Research Building","short_name":"Sci Research","campus":"UTSC","lat":43.78426,"lng":-79.18949,"address":{"street":"","city":"Scarborough","province":"ON","country":"Canada","postal":""}}
{"_id":{"$oid":"56e3718ea6b3f161fc144d20"},"id":"064","code":"GD","name":"Graduate House","short_name":"Graduate Hse","campus":"UTSG","lat":43.66338,"lng":-79.40164,"address":{"street":"60  Harbord Street","city":"Toronto","province":"ON","country":"Canada","postal":"M5S 1A1"}}
{"_id":{"$oid":"56e3718ea6b3f161fc144d21"},"id":"502","code":"EM","name":"Emmanuel College","short_name":"Emmanuel","campus":"UTSG","lat":43.66673,"lng":-79.39282,"address":{"street":"75  Queen's Park","city":"Toronto","province":"ON","country":"Canada","postal":"M5S 1K7"}}
{"_id":{"$oid":"56e3718ea6b3f161fc144d22"},"id":"043","code":"GS","name":"School of Graduate Studies","short_name":"SGS","campus":"UTSG","lat":43.662,"lng":-79.39711,"address":{"street":"65  St. George Street","city":"Toronto","province":"ON","country":"Canada","postal":"M5S 2E5"}}
{"_id":{"$oid":"56e3718ea6b3f161fc144d23"},"id":"006B","code":"RB","name":"Thomas Fisher Rare Book Library Building","short_name":"Rare Book","campus":"UTSG","lat":43.66405,"lng":-79.39894,"address":{"street":"120  St. George Street","city":"Toronto","province":"ON","country":"Canada","postal":"M5S 1A5"}}
{"_id":{"$oid":"56e3718ea6b3f161fc144d24"},"id":"261","code":"XX261","name":"Coach House - Old Kingston Rd","short_name":"Coach House","campus":"UTSC","lat":43.77885,"lng":-79.18473,"address":{"street":"130 Old Kingston Road","city":"Scarborough","province":"ON","country":"Canada","postal":"M1E 3J5"}}
{"_id":{"$oid":"56e3718ea6b3f161fc144d25"},"id":"079","code":"AP","name":"Anthropology Building","short_name":"Anthropology","campus":"UTSG","lat":43.65987,"lng":-79.39845,"address":{"street":"19  Russell Street","city":"Toronto","province":"ON","country":"Canada","postal":"M5S 2S2"}}
{"_id":{"$oid":"56e3718ea6b3f161fc144d26"},"id":"032","code":"WE","name":"Wetmore Hall-New College","short_name":"Wetmore Hall","campus":"UTSG","lat":43.66224,"lng":-79.40059,"address":{"street":"300  Huron Street","city":"Toronto","province":"ON","country":"Canada","postal":"M5S 2Z3"}}
{"_id":{"$oid":"56e3718ea6b3f161fc144d27"},"id":"171","code":"TT","name":"Spadina Ave-455","short_name":"Spadina-455","campus":"UTSG","lat":43.65821,"lng":-79.3997,"address":{"street":"455  Spadina Avenue","city":"Toronto","province":"ON","country":"Canada","postal":"M5S 2G8"}}
{"_id":{"$oid":"56e3718ea6b3f161fc144d28"},"id":"326","code":"XX326","name":"Oscar Peterson Hall (Phase VIII)","short_name":"OscarPeterson","campus":"UTM","lat":43.54877,"lng":-79.66598,"address":{"street":"3375 Residence Road","city":"Mississauga","province":"ON","country":"Canada","postal":"L5L 6A2"}}
{"_id":{"$oid":"56e3718ea6b3f161fc144d29"},"id":"312","code":"XX312","name":"Central Utilities Plant","short_name":"Central Util","campus":"UTM","lat":43.55179,"lng":-79.66213,"address":{"street":"1630 Outer Circle","city":"Mississauga","province":"ON","country":"Canada","postal":""}}
{"_id":{"$oid":"56e3718ea6b3f161fc144d2a"},"id":"127","code":"AD","name":"Enrolment Services","short_name":"Enrol Serv","campus":"UTSG","lat":43.66812,"lng":-79.40046,"address":{"street":"172 St. George Street","city":"Toronto","province":"ON","country":"Canada","postal":"M5R 0A3"}}
{"_id":{"$oid":"56e3718ea6b3f161fc144d2b"},"id":"419","code":"MH","name":"More House","short_name":"More House","campus":"UTSG","lat":43.6656,"lng":-79.39086,"address":{"street":"59  Queen's Park Crescent East","city":"Toronto","province":"ON","country":"Canada","postal":"M5S 2C4"}}
{"_id":{"$oid":"56e3718ea6b3f161fc144d2c"},"id":"200H","code":"HW","name":"Humanities Wing (H-Wing)","short_name":"H-Wing","campus":"UTSC","lat":43.78345,"lng":-79.18704,"address":{"street":"1265 Military Trail","city":"Scarborough","province":"ON","country":"Canada","postal":"M1C 1A4"}}
{"_id":{"$oid":"56e3718ea6b3f161fc144d2d"},"id":"032A","code":"WI","name":"Wilson Hall-New College","short_name":"Wilson Hall","campus":"UTSG","lat":43.66176,"lng":-79.40035,"address":{"street":"40  Willcocks Street","city":"Toronto","province":"ON","country":"Canada","postal":"M5S 1C6"}}
{"_id":{"$oid":"56e3718ea6b3f161fc144d2e"},"id":"435","code":"SR","name":"Sam Sorbara Hall Student Residence","short_name":"Sorbara Hall","campus":"UTSG","lat":43.66576,"lng":-79.38904,"address":{"street":"70  St. Joseph Street","city":"Toronto","province":"ON","country":"Canada","postal":""}}
{"_id":{"$oid":"56e3718ea6b3f161fc144d2f"},"id":"407","code":"AH","name":"Muzzo Family Alumni Hall","short_name":"Alumni Hall","campus":"UTSG","lat":43.66479,"lng":-79.39015,"address":{"street":"121  St. Joseph Street","city":"Toronto","province":"ON","country":"Canada","postal":"M5S 1J4"}}
{"_id":{"$oid":"56e3718ea6b3f161fc144d30"},"id":"329","code":"CC","name":"Communication, Culture \u0026 Technology","short_name":"CCT","campus":"UTM","lat":43.55003,"lng":-79.66308,"address":{"street":"1800 MIddle Road","city":"Mississauga","province":"ON","country":"Canada","postal":"L5L 1C6"}}
{"_id":{"$oid":"56e3718ea6b3f161fc144d31"},"id":"132","code":"IN","name":"Innis College","short_name":"Innis Coll","campus":"UTSG","lat":43.66557,"lng":-79.39948,"address":{"street":"2  Sussex Avenue","city":"Toronto","province":"ON","country":"Canada","postal":"M5S 1J5"}}
{"_id":{"$oid":"56e3718ea6b3f161fc144d32"},"id":"030A","code":"VA","name":"Varsity Centre","short_name":"Varsity Centre","campus":"UTSG","lat":43.66724,"lng":-79.3963,"address":{"street":"299  Bloor Street West","city":"Toronto","province":"ON","country":"Canada","postal":""}}
{"_id":{"$oid":"56e3718ea6b3f161fc144d33"},"id":"160","code":"DC","name":"Terrence Donnelly Ctr for Cellular \u0026 Biomolecular Res","short_name":"DonnellyCCBR","campus":"UTSG","lat":43.66016,"lng":-79.39288,"address":{"street":"160  College Street","city":"Toronto","province":"ON","country":"Canada","postal":"M5S 3E1"}}
{"_id":{"$oid":"56e3718ea6b3f161fc144d34"},"id":"501","code":"VC","name":"Victoria College","short_name":"Victoria","campus":"UTSG","lat":43.6669,"lng":-79.39201,"address":{"street":"91  Charles Street West","city":"Toronto","province":"ON","country":"Canada","postal":"M5S 1K7"}}
{"_id":{"$oid":"56e3718ea6b3f161fc144d35"},"id":"413","code":"BS","name":"St. Basil's Church","short_name":"Basil Church","campus":"UTSG","lat":43.66632,"lng":-79.38917,"address":{"street":"50  St. Joseph Street","city":"Toronto","province":"ON","country":"Canada","postal":"M5S IJ4"}}
{"_id":{"$oid":"56e3718ea6b3f161fc144d36"},"id":"082","code":"GA","name":"Gage Building","short_name":"Gage Bldg","campus":"UTSG","lat":43.6582,"lng":-79.39709,"address":{"street":"223  College Street","city":"Toronto","province":"ON","country":"Canada","postal":"M5T 1R4"}}
{"_id":{"$oid":"56e3718ea6b3f161fc144d37"},"id":"210E","code":"XX210E","name":"Block E (Student Townhouse Res-Phase I)","short_name":"Block E-Pse I","campus":"UTSC","lat":43.78336,"lng":-79.18461,"address":{"street":"1295 Military Trail","city":"Scarborough","province":"ON","country":"Canada","postal":"M1C 3A8"}}
{"_id":{"$oid":"56e3718ea6b3f161fc144d38"},"id":"323R","code":"XX323R","name":"Leacock Lane Res - Block R (Phase IV)","short_name":"Leacock-R","campus":"UTM","lat":43.54581,"lng":-79.66356,"address":{"street":"1900 Outer Circle","city":"Mississauga","province":"ON","country":"Canada","postal":"L5L 1J7"}}
{"_id":{"$oid":"56e3718ea6b3f161fc144d39"},"id":"575","code":"KX","name":"Knox College","short_name":"Knox","campus":"UTSG","lat":43.66136,"lng":-79.39696,"address":{"street":"59  St. George Street","city":"Toronto","province":"ON","country":"Canada","postal":"M5S 2E6"}}
{"_id":{"$oid":"56e3718ea6b3f161fc144d3a"},"id":"518","code":"RJ","name":"Rowell Jackman Hall","short_name":"Jackman Hall","campus":"UTSG","lat":43.66742,"lng":-79.39082,"address":{"street":"85  Charles Street West","city":"Toronto","province":"ON","country":"Canada","postal":"M5S 1K5"}}
{"_id":{"$oid":"56e3718ea6b3f161fc144d3b"},"id":"210L","code":"XX210L","name":"Block L(Student Townhouse Res-Phase III)","short_name":"Block L-Pse III","campus":"UTSC","lat":43.78529,"lng":-79.18905,"address":{"street":"1235 Military Trail","city":"Scarborough","province":"ON","country":"Canada","postal":"M1C 1A3"}}
{"_id":{"$oid":"56e3718ea6b3f161fc144d3c"},"id":"425","code":"SV","name":"Sullivan House","short_name":"Sullivan","campus":"UTSG","lat":43.6654,"lng":-79.38998,"address":{"street":"96  St. Joseph Street","city":"Toronto","province":"ON","country":"Canada","postal":""}}
{"_id":{"$oid":"56e3718ea6b3f161fc144d3d"},"id":"057","code":"BF","name":"Bancroft Building","short_name":"Bancroft Bld","campus":"UTSG","lat":43.66093,"lng":-79.39972,"address":{"street":"4  Bancroft Avenue","city":"Toronto","province":"ON","country":"Canada","postal":"M5S 1C1"}}
{"_id":{"$oid":"56e3718ea6b3f161fc144d3e"},"id":"154","code":"HS","name":"Health Sciences Building","short_name":"Health Sci","campus":"UTSG","lat":43.65904,"lng":-79.39288,"address":{"street":"155  College Street","city":"Toronto","province":"ON","country":"Canada","postal":"M5T 1P8"}}
{"_id":{"$oid":"56e3718ea6b3f161fc144d3f"},"id":"067","code":"HU","name":"Huron Street-215","short_name":"Huron-215","campus":"UTSG","lat":43.6593,"lng":-79.39824,"address":{"street":"215  Huron Street","city":"Toronto","province":"ON","country":"Canada","postal":"M5S 1A2"}}
{"_id":{"$oid":"56e3718ea6b3f161fc144d40"},"id":"189","code":"FA","name":"Spadina Avenue-720","short_name":"Spadina-720","campus":"UTSG","lat":43.6654,"lng":-79.40363,"address":{"street":"720  Spadina Avenue","city":"Toronto","province":"ON","country":"Canada","postal":"M5S 2T9"}}
{"_id":{"$oid":"56e3718ea6b3f161fc144d41"},"id":"420","code":"FS","name":"Fisher House","short_name":"Fisher House","campus":"UTSG","lat":43.66546,"lng":-79.39081,"address":{"street":"59  Queen's Park Crescent East","city":"Toronto","province":"ON","country":"Canada","postal":"M5S 2C4"}}
{"_id":{"$oid":"56e3718ea6b3f161fc144d42"},"id":"102","code":"TR","name":"Soldiers' Tower","short_name":"Soldiers Twr","campus":"UTSG","lat":43.66351,"lng":-79.39522,"address":{"street":"7  Hart House Circle","city":"Toronto","province":"ON","country":"Canada","postal":"M5S 3H3"}}
{"_id":{"$oid":"56e3718ea6b3f161fc144d43"},"id":"153","code":"CD","name":"Spadina Road-56","short_name":"SpadinaRd-56","campus":"UTSG","lat":43.66967,"lng":-79.40534,"address":{"street":"56  Spadina Road","city":"Toronto","province":"ON","country":"Canada","postal":""}}
{"_id":{"$oid":"56e3718ea6b3f161fc144d44"},"id":"200N","code":"PO","name":"Portable 104","short_name":"Portable 104","campus":"UTSC","lat":43.78412,"lng":-79.18899,"address":{"street":"","city":"Scarborough","province":"ON","country":"Canada","postal":""}}
{"_id":{"$oid":"56e3718ea6b3f161fc144d45"},"id":"017","code":"PL","name":"Queen's Park-90","short_name":"Queen'sPk-90","campus":"UTSG","lat":0,"lng":0,"address":{"street":"90 Queen's Park","city":"Toronto","province":"ON","country":"Canada","postal":""}}
{"_id":{"$oid":"56e3718ea6b3f161fc144d46"},"id":"123","code":"OI","name":"Ontario Institute for Studies in Education","short_name":"OISE","campus":"UTSG","lat":43.66828,"lng":-79.39846,"address":{"street":"252  Bloor Street West","city":"Toronto","province":"ON","country":"Canada","postal":"M5S 1V6"}}
{"_id":{"$oid":"56e3718ea6b3f161fc144d47"},"id":"038","code":"WW","name":"Woodsworth College","short_name":"Woodsworth","campus":"UTSG","lat":43.6664,"lng":-79.39879,"address":{"street":"119  St. George Street","city":"Toronto","province":"ON","country":"Canada","postal":"M5S 1A9"}}
{"_id":{"$oid":"56e3718ea6b3f161fc144d48"},"id":"085","code":"CX","name":"College Street - 245","short_name":"College St-245","campus":"UTSG","lat":0,"lng":0,"address":{"street":"245 College Street","city":"Toronto","province":"ON","country":"Canada","postal":""}}
{"_id":{"$oid":"56e3718ea6b3f161fc144d49"},"id":"790","code":"XX790","name":"Charles St. West-30","short_name":"CharlesW-30","campus":"UTSG","lat":43.66899,"lng":-79.38648,"address":{"street":"30  Charles St. West","city":"Toronto","province":"ON","country":"Canada","postal":"M4Y 1R5"}}
{"_id":{"$oid":"56e3718ea6b3f161fc144d4a"},"id":"508","code":"MG","name":"Margaret Addison Hall","short_name":"M Addison","campus":"UTSG","lat":43.66826,"lng":-79.39252,"address":{"street":"140  Charles Street West","city":"Toronto","province":"ON","country":"Canada","postal":"M5S 1K9"}}
{"_id":{"$oid":"56e3718ea6b3f161fc144d4b"},"id":"428","code":"BH","name":"Founders House","short_name":"Founders","campus":"UTSG","lat":43.66551,"lng":-79.38935,"address":{"street":"1  Elmsley Place","city":"Toronto","province":"ON","country":"Canada","postal":""}}
{"_id":{"$oid":"56e3718ea6b3f161fc144d4c"},"id":"036","code":"AB","name":"Astronomy \u0026 Astrophysics Building","short_name":"Astronomy","campus":"UTSG","lat":43.66066,"lng":-79.39734,"address":{"street":"50  St. George Street","city":"Toronto","province":"ON","country":"Canada","postal":"M5S 3H4"}}
{"_id":{"$oid":"56e3718ea6b3f161fc144d4d"},"id":"097","code":"ME","name":"Queen's Park Crescent East-39","short_name":"QueenPk-39","campus":"UTSG","lat":43.66424,"lng":-79.39041,"address":{"street":"39  Queen's Park Crescent East","city":"Toronto","province":"ON","country":"Canada","postal":"M5S 2C3"}}
{"_id":{"$oid":"56e3718ea6b3f161fc144d4e"},"id":"022","code":"MC","name":"Mechanical Engineering Building","short_name":"Mech Eng","campus":"UTSG","lat":43.65993,"lng":-79.39403,"address":{"street":"5  King's College Road","city":"Toronto","province":"ON","country":"Canada","postal":"M5S 3G8"}}
{"_id":{"$oid":"56e3718ea6b3f161fc144d4f"},"id":"426","code":"CR","name":"Carr Hall","short_name":"Carr Hall","campus":"UTSG","lat":43.66523,"lng":-79.39051,"address":{"street":"100  St. Joseph Street","city":"Toronto","province":"ON","country":"Canada","postal":"M5S 1J4"}}
{"_id":{"$oid":"56e3718ea6b3f161fc144d50"},"id":"006A","code":"BL","name":"Claude T. Bissell Building","short_name":"Bissell Bldg","campus":"UTSG","lat":43.66503,"lng":-79.3993,"address":{"street":"140  St. George Street","city":"Toronto","province":"ON","country":"Canada","postal":"M5S 3G6"}}
{"_id":{"$oid":"56e3718ea6b3f161fc144d51"},"id":"002","code":"HH","name":"Hart House","short_name":"Hart House","campus":"UTSG","lat":43.6637,"lng":-79.39452,"address":{"street":"7  Hart House Circle","city":"Toronto","province":"ON","country":"Canada","postal":"M5S 3H3"}}
{"_id":{"$oid":"56e3718ea6b3f161fc144d52"},"id":"263","code":"XX263","name":"Miller Lash House","short_name":"Miller Lash","campus":"UTSC","lat":43.77996,"lng":-79.18539,"address":{"street":"130 Old Kingston Road","city":"Scarborough","province":"ON","country":"Canada","postal":"M1E 3J5"}}
{"_id":{"$oid":"56e3718ea6b3f161fc144d53"},"id":"034","code":"MA","name":"Massey College","short_name":"Massey Coll","campus":"UTSG","lat":43.66484,"lng":-79.39728,"address":{"street":"4  Devonshire Place","city":"Toronto","province":"ON","country":"Canada","postal":"M5S 2E1"}}
{"_id":{"$oid":"56e3718ea6b3f161fc144d54"},"id":"073","code":"LM","name":"Lash Miller Chemical Laboratories","short_name":"Lash Miller","campus":"UTSG","lat":43.6614,"lng":-79.39781,"address":{"street":"80  St. George Street","city":"Toronto","province":"ON","country":"Canada","postal":"M5S 3H6"}}
{"_id":{"$oid":"56e3718ea6b3f161fc144d55"},"id":"323N","code":"XX323N","name":"Putnam Place Res - Block N (Phase III)","short_name":"Putman-N","campus":"UTM","lat":43.54695,"lng":-79.66511,"address":{"street":"1930 Outer CIrcle","city":"Mississauga","province":"ON","country":"Canada","postal":"L5L 1J7"}}
{"_id":{"$oid":"56e3718ea6b3f161fc144d56"},"id":"211","code":"FL","name":"Joan Foley Hall (Student Res-Phase IV)","short_name":"Foley Hall","campus":"UTSC","lat":43.78297,"lng":-79.18515,"address":{"street":"1295  Military Trail","city":"Scarborough","province":"ON","country":"Canada","postal":"M1C 1A3"}}
{"_id":{"$oid":"56e3718ea6b3f161fc144d57"},"id":"507","code":"GC","name":"Goldring Student Centre","short_name":"Goldring Ctr","campus":"UTSG","lat":43.66764,"lng":-79.3926,"address":{"street":"150  Charles Street West","city":"Toronto","province":"ON","country":"Canada","postal":"M5S 1K9"}}
{"_id":{"$oid":"56e3718ea6b3f161fc144d58"},"id":"088","code":"WA","name":"St. George Street123","short_name":"StGeorge-123","campus":"UTSG","lat":43.6669,"lng":-79.39921,"address":{"street":"123  St. George Street","city":"Toronto","province":"ON","country":"Canada","postal":"M5S 2E8"}}
{"_id":{"$oid":"56e3718ea6b3f161fc144d59"},"id":"065","code":"DN","name":"Dentistry Building","short_name":"Dentistry","campus":"UTSG","lat":43.65627,"lng":-79.38714,"address":{"street":"124  Edward Street","city":"Toronto","province":"ON","country":"Canada","postal":"M5G 1G6"}}
{"_id":{"$oid":"56e3718ea6b3f161fc144d5a"},"id":"301","code":"XX301","name":"Lislehurst (Principal's Residence)","short_name":"Lislehurst","campus":"UTM","lat":43.55468,"lng":-79.66877,"address":{"street":"3369 Principal's Road","city":"Mississauga","province":"ON","country":"Canada","postal":""}}
{"_id":{"$oid":"56e3718ea6b3f161fc144d5b"},"id":"129","code":"ER","name":"Early Learning Centre","short_name":"Early Learn","campus":"UTSG","lat":43.66391,"lng":-79.40115,"address":{"street":"7  Glen Morris Street","city":"Toronto","province":"ON","country":"Canada","postal":"M5S 1H9"}}
{"_id":{"$oid":"56e3718ea6b3f161fc144d5c"},"id":"026","code":"CU","name":"Cumberland House","short_name":"Cumberland","campus":"UTSG","lat":43.65946,"lng":-79.3959,"address":{"street":"33  St. George Street","city":"Toronto","province":"ON","country":"Canada","postal":"M5S 2E3"}}
{"_id":{"$oid":"56e3718ea6b3f161fc144d5d"},"id":"090","code":"ZC","name":"College Street-88","short_name":"College-88","campus":"UTSG","lat":43.66077,"lng":-79.38784,"address":{"street":"88  College Street","city":"Toronto","province":"ON","country":"Canada","postal":"M5G 1L4"}}
{"_id":{"$oid":"56e3718ea6b3f161fc144d5e"},"id":"210H","code":"XX210H","name":"Block H (Student Townhouse Res-Phase II)","short_name":"Block H-Pse II","campus":"UTSC","lat":43.78283,"lng":-79.18366,"address":{"street":"1295 Military Trail","city":"Scarborough","province":"ON","country":"Canada","postal":"M1C 3A8"}}
{"_id":{"$oid":"56e3718ea6b3f161fc144d5f"},"id":"005","code":"MS","name":"Medical Sciences Building","short_name":"MSB","campus":"UTSG","lat":43.66074,"lng":-79.39373,"address":{"street":"1  King's College Circle","city":"Toronto","province":"ON","country":"Canada","postal":"M5S 1A8"}}
{"_id":{"$oid":"56e3718ea6b3f161fc144d60"},"id":"158","code":"CN","name":"Chestnut Residence and Conference Centre","short_name":"Chestnut-89","campus":"UTSG","lat":43.65431,"lng":-79.38536,"address":{"street":"89  Chestnut Street","city":"Toronto","province":"ON","country":"Canada","postal":"M5G 1R1"}}
{"_id":{"$oid":"56e3718ea6b3f161fc144d61"},"id":"323M","code":"XX323M","name":"Putnam Place Res - Block M (Phase III)","short_name":"Putman-M","campus":"UTM","lat":43.54666,"lng":-79.66507,"address":{"street":"1930 Outer Circle","city":"Mississauga","province":"ON","country":"Canada","postal":"L5L 1J7"}}
{"_id":{"$oid":"56e3718ea6b3f161fc144d62"},"id":"200M","code":"MW","name":"Social Sciences Building","short_name":"Social Sci","campus":"UTSC","lat":43.78286,"lng":-79.18603,"address":{"street":"1265 Military Trail","city":"Scarborough","province":"ON","country":"Canada","postal":"M1C 1A4"}}
{"_id":{"$oid":"56e3718ea6b3f161fc144d63"},"id":"427","code":"MZ","name":"McCorkell House","short_name":"McCorkell","campus":"UTSG","lat":43.66543,"lng":-79.38987,"address":{"street":"2  Elmsley Place","city":"Toronto","province":"ON","country":"Canada","postal":""}}
{"_id":{"$oid":"56e3718ea6b3f161fc144d64"},"id":"429","code":"KL","name":"J. M. Kelly Library","short_name":"J.M. Kelly","campus":"UTSG","lat":43.66485,"lng":-79.38953,"address":{"street":"113  St. Joseph Street","city":"Toronto","province":"ON","country":"Canada","postal":"M5S 1J4"}}
{"_id":{"$oid":"56e3718ea6b3f161fc144d65"},"id":"021","code":"EA","name":"Engineering Annex","short_name":"Eng Annex","campus":"UTSG","lat":43.6596,"lng":-79.39541,"address":{"street":"11  King's College Road","city":"Toronto","province":"ON","country":"Canada","postal":"M5S 1A4"}}
